City_ID,City,Country,Max Temp,Current Description,Lat,Lng,Hotel Name
0,Cabo San Lucas,MX,86.0,overcast clouds,22.89,-109.91,Hotel Tesoro Los Cabos
1,Kodiak,US,60.8,clear sky,57.79,-152.41,Best Western Kodiak Inn and Convention Center
2,Puerto Ayora,EC,66.99,overcast clouds,-0.74,-90.35,Finch Bay Galapagos Hotel
3,Belmonte,BR,75.2,scattered clouds,-15.86,-38.88,Pousada Monte Carmelo O Pão
4,Cururupu,BR,75.42,clear sky,-1.83,-44.87,Pousada Través'cia
5,Barrow,US,57.2,clear sky,71.29,-156.79,King Eider Inn
6,Yellowknife,CA,64.4,broken clouds,62.46,-114.35,The Explorer Hotel
7,Yarada,IN,80.6,drizzle,17.65,83.27,"D-26/2, Dolphin Hill,"
8,Nanortalik,GL,47.98,clear sky,60.14,-45.24,"NTS Rooms, Nanortalik"
9,Padang,ID,81.5,few clouds,-0.95,100.35,Mercure Padang
10,Barcelos,PT,68.0,broken clouds,41.54,-8.62,Hotel Do Terço
11,Vaini,TO,73.4,overcast clouds,-21.2,-175.2,Keleti Beach Resort
12,Jamestown,US,66.0,clear sky,42.1,-79.24,Hampton Inn & Suites Jamestown
13,Ushuaia,AR,32.0,scattered clouds,-54.8,-68.3,Albatros Hotel
14,Chuy,UY,51.69,clear sky,-33.7,-53.46,Nuevo Hotel Plaza
15,Arlit,NE,93.0,broken clouds,18.74,7.39,Hôtel Telwa Bungalow
16,Cherskiy,RU,44.85,overcast clouds,68.75,161.3,Gostinitsa
17,Laguna,US,105.8,few clouds,38.42,-121.42,Holiday Inn Express & Suites Elk Grove Central - Hwy 99
18,Mayo,US,78.8,light rain,38.89,-76.51,Resorts Resource Group International
19,Kosonsoy,UZ,66.2,clear sky,41.26,71.55,"Гостиница ""Goldstar'"
20,Souillac,MU,71.6,scattered clouds,-20.52,57.52,Bils' Villa
21,Hasaki,JP,87.01,broken clouds,35.73,140.83,Inubosaki Kanko Hotel
22,Karachi,PK,86.0,broken clouds,24.91,67.08,Hillside Homes
23,Puerto Leguizamo,CO,80.83,broken clouds,-0.19,-74.78,la casona de juancho
24,General Roca,AR,44.6,clear sky,-39.03,-67.58,Hotel El Recreo
25,Nhulunbuy,AU,80.6,few clouds,-12.23,136.77,East Arnhem Real Estate
26,Tiksi,RU,39.96,overcast clouds,71.69,128.87,Arktika
27,Talnakh,RU,62.6,clear sky,69.49,88.4,Talnakh Hotel
28,Lasa,IT,48.2,overcast clouds,46.62,10.7,Pension Feldgärtenhof
29,Georgetown,MY,80.6,few clouds,5.41,100.34,Cititel Penang
30,Adelaide,AU,55.99,broken clouds,-34.93,138.6,The Chancellor on Currie
32,Dordrecht,NL,64.99,clear sky,51.81,4.67,Bastion Hotel Dordrecht - Papendrecht
33,Dunedin,NZ,55.0,overcast clouds,-45.87,170.5,Scenic Hotel Southern Cross
34,Mataura,NZ,55.09,overcast clouds,-46.19,168.86,Ellie's Villa
35,Punta Arenas,CL,33.8,broken clouds,-53.15,-70.92,Hotel Dreams Del Estrecho
37,Kavieng,PG,84.45,scattered clouds,-2.57,150.8,Nusa Island Retreat
38,Mahebourg,MU,71.6,scattered clouds,-20.41,57.7,Le Peninsula Bay Beach Resort & Spa
39,Arraial Do Cabo,BR,73.4,clear sky,-22.97,-42.03,Pousada Porto Praia
40,Sungaipenuh,ID,70.9,overcast clouds,-2.08,101.38,Hotel Jaya Wisata 2
41,Vila Velha,BR,73.4,clear sky,-20.33,-40.29,Hotel Vitória Palace
42,Sorland,NO,52.25,overcast clouds,67.67,12.69,Sjybrygga fiskecamp
43,Mar Del Plata,AR,43.0,overcast clouds,-38.0,-57.56,Gran Hotel Mar del Plata habitaciones
45,Busselton,AU,50.0,scattered clouds,-33.65,115.33,Observatory Guest House
46,Bluff,NZ,51.33,broken clouds,-46.6,168.33,Bluff Homestead - Guesthouse & Campervan Park
47,Kirakira,SB,85.12,overcast clouds,-10.45,161.92,SanBiz Lodge
48,Hamilton,US,69.01,light rain,39.18,-84.53,Six Acres Bed & Breakfast
50,Lewiston,US,69.8,overcast clouds,44.1,-70.21,Hilton Garden Inn Auburn Riverwatch
51,Cape Town,ZA,50.0,broken clouds,-33.93,18.42,Southern Sun Waterfront Cape Town
52,Pulaski,US,87.8,broken clouds,34.77,-92.3,DoubleTree by Hilton Hotel Little Rock
53,Yulara,AU,57.2,clear sky,-25.24,130.99,Desert Gardens Hotel - Ayers Rock Resort
54,Dhidhdhoo,MV,81.97,broken clouds,6.88,73.1,Dhidhoo beach
55,Dingle,PH,81.73,overcast clouds,11.0,122.67,Camp Pasica
56,Smithers,CA,68.0,scattered clouds,54.78,-127.17,Prestige Hudson Bay Lodge
57,Liverpool,GB,62.6,broken clouds,53.41,-2.98,Premier Inn Liverpool City Centre (Moorfields) hotel
58,Butaritari,KI,83.53,clear sky,3.07,172.79,Isles Sunset Lodge
59,Kahului,US,89.6,scattered clouds,20.89,-156.47,Maui Seaside Hotel
60,Axim,GH,75.22,overcast clouds,4.87,-2.24,AXIM BEACH RESORT AND SPA
61,Lorengau,PG,83.61,light rain,-2.02,147.27,Lorengau Harbourside Hotel
62,Rikitea,PF,71.96,few clouds,-23.12,-134.97,Pension Maro'i
63,Norman Wells,CA,60.8,broken clouds,65.28,-126.83,Heritage Hotel
65,New Norfolk,AU,51.01,broken clouds,-42.78,147.06,The Shingles Riverside Cottages
66,Homer,US,62.6,broken clouds,59.64,-151.55,Beluga Lake Lodge
67,Esperance,AU,50.0,broken clouds,-33.87,121.9,Hospitality Esperance
68,Bethel,US,71.01,scattered clouds,41.37,-73.41,Courtyard by Marriott Danbury
69,Karmaskaly,RU,48.2,clear sky,54.37,56.18,Гостиница Кармаскалы
70,Pacifica,US,80.6,clear sky,37.61,-122.49,"Pacifica Lighthouse, Trademark Collection by Wyndham"
71,Sitka,US,57.2,moderate rain,57.05,-135.33,Westmark Sitka
72,Igarka,RU,61.29,clear sky,67.47,86.58,"Zapolyar'ye, Gostinitsa"
73,Tecoanapa,MX,82.58,overcast clouds,16.52,-98.75,Hotel Manglares
74,Ponta Do Sol,PT,71.6,few clouds,32.67,-17.1,Hotel do Campo
75,Sheregesh,RU,56.66,overcast clouds,52.92,87.99,Hotel Olymp
77,Zunyi,CN,69.8,scattered clouds,27.69,106.91,Bishiluo Hostel
79,Hopewell,US,75.0,overcast clouds,37.3,-77.29,Best Western Plus Hopewell Inn
81,Pinos,MX,73.4,scattered clouds,22.3,-101.57,Hotel El Meson Del Conde
82,Honiara,SB,87.8,broken clouds,-9.43,159.95,Heritage Park Hotel
83,Sambava,MG,65.84,few clouds,-14.27,50.17,Melrose
84,Huarmey,PE,60.08,scattered clouds,-10.07,-78.15,Hotel Miramar
85,Qaqortoq,GL,50.0,clear sky,60.72,-46.03,Hotel Qaqortoq
86,Fairbanks,US,73.4,clear sky,64.84,-147.72,Westmark Fairbanks Hotel & Conference Center
87,Nome,US,71.01,clear sky,64.5,-165.41,Dredge 7 Inn
88,Castro,BR,59.07,light rain,-24.79,-50.01,CHACARA BAILLY
89,Pozo Colorado,PY,67.33,moderate rain,-23.49,-58.8,Hospedaje la Amistad
90,Victoria,HK,81.0,light intensity shower rain,22.29,114.16,Mini Hotel Central
91,Hermanus,ZA,48.99,broken clouds,-34.42,19.23,Misty Waves Boutique Hotel
92,Moron,AR,57.0,overcast clouds,-34.65,-58.62,Hotel Morón
93,Hobart,AU,52.0,scattered clouds,-42.88,147.33,St Ives Apartments
94,Upernavik,GL,46.18,overcast clouds,72.79,-56.15,Gina's Guesthouse - Upernavik
95,Wajima,JP,82.4,scattered clouds,37.4,136.9,Wajiima Onsen Yashio
96,Iquique,CL,60.8,overcast clouds,-20.22,-70.14,Backpacker`s Hostel Iquique
98,San Felipe,VE,73.83,overcast clouds,10.34,-68.74,Posada Llovizna Rodríguez
99,Buala,SB,85.5,light rain,-8.14,159.59,Maringe Lagoon Lodge
101,Marion,US,75.2,scattered clouds,39.77,-86.16,Hilton Indianapolis Hotel & Suites
102,Bredasdorp,ZA,44.6,overcast clouds,-34.53,20.04,Bredasdorp Country Manor
103,Lodwar,KE,81.55,overcast clouds,3.12,35.6,Turkwel Lodge
104,Tasiilaq,GL,44.6,overcast clouds,65.61,-37.64,The Red House
105,Saint-Philippe,RE,64.4,few clouds,-21.36,55.77,"Chambres d'hôte ""La Trinité"""
106,Thunder Bay,CA,62.6,overcast clouds,48.4,-89.32,Victoria Inn Hotel and Convention Centre
107,Nikolskoye,RU,51.01,clear sky,59.7,30.79,Tourist House - Sablino
108,Hami,CN,84.88,overcast clouds,42.8,93.45,Laoyutang Resort
109,Severo-Kurilsk,RU,51.8,overcast clouds,50.68,156.12,Kak Doma
110,Lebu,CL,45.54,clear sky,-37.62,-73.65,Hostal Las Lilas
111,Longyearbyen,SJ,44.6,shower rain,78.22,15.64,"Radisson Blu Polar Hotel, Spitsbergen"
112,Port Elizabeth,ZA,51.8,light intensity shower rain,-33.92,25.57,39 On Nile Guest House
113,Hithadhoo,MV,83.95,few clouds,-0.6,73.08,Scoop Guest House
114,Filadelfia,US,81.0,scattered clouds,39.95,-75.16,Loews Philadelphia Hotel
115,Camana,PE,58.26,overcast clouds,-16.62,-72.71,Hostal Morales
116,Owando,CG,73.8,overcast clouds,-0.48,15.9,Exaunel Hotel Owando
117,Derzhavinsk,KZ,54.55,broken clouds,51.1,66.32,Ooo.khim Baza
118,Oksfjord,NO,50.0,overcast clouds,70.24,22.35,Bobo
119,Atuona,PF,78.94,clear sky,-9.8,-139.03,Villa Enata
120,Avarua,CK,75.2,light rain,-21.21,-159.78,Paradise Inn
121,Mocuba,MZ,67.42,clear sky,-16.84,36.99,Phama Lodge
122,Port Lincoln,AU,56.91,clear sky,-34.73,135.87,Port Lincoln Hotel
123,Sioux Lookout,CA,64.4,broken clouds,50.1,-91.92,Knobby's Fly-In Camps
124,Bengkulu,ID,80.33,clear sky,-3.8,102.27,Grage Hotel Bengkulu
125,Kargil,IN,56.73,clear sky,34.57,76.1,Caravan Sarai
126,Klaksvik,FO,46.4,overcast clouds,62.23,-6.59,Geilin Bed & Breakfast
128,Shenjiamen,CN,82.76,clear sky,29.96,122.3,Jinjiang Inn Zhoushan Putuo Shenjiamen
129,Ribeira Grande,PT,71.47,broken clouds,38.52,-28.7,Quinta da Meia Eira
130,East London,ZA,55.51,overcast clouds,-33.02,27.91,Tu Casa
131,Harper,LR,75.4,light rain,4.38,-7.72,Screensaver
132,Xining,CN,56.97,clear sky,36.62,101.77,Super Leisure Hotel
133,Kapaa,US,87.8,clear sky,22.08,-159.32,Sheraton Kauai Resort at Coconut Beach
136,Ponta Delgada,PT,75.2,light intensity shower rain,37.73,-25.67,Vila Nova Hotel
137,Andenes,NO,50.0,overcast clouds,69.31,16.12,Hotell Marena
138,Bilibino,RU,51.37,broken clouds,68.05,166.44,Gostinitsa Severyanka
139,Manokwari,ID,83.88,overcast clouds,-0.87,134.08,Swiss Belhotel Manokwari
140,Bambous Virieux,MU,71.6,scattered clouds,-20.34,57.76,Casa Tia Villa
141,Verkhnetulomskiy,RU,46.4,broken clouds,68.61,31.8,Отель Уют
142,Sao Felix Do Xingu,BR,81.37,scattered clouds,-6.64,-51.99,Apart Hotel Rio Xingu
143,Bud,US,71.6,scattered clouds,39.45,-86.18,Madsion Scouts Camp
144,Dejen,ET,52.77,light rain,10.17,38.13,MAFLAB International Hotel
145,Saint-Pierre,RE,64.4,few clouds,-21.34,55.48,Lindsey Hôtel
146,Bang Bo,TH,81.0,few clouds,13.57,100.84,PAEVA LUXURY RESIDENCE
147,Ilulissat,GL,50.0,overcast clouds,69.22,-51.1,Hotel Arctic
148,Superior,US,77.0,clear sky,46.72,-92.1,Holiday Inn Express & Suites Superior - Duluth Area
149,Debre Tabor,ET,50.09,overcast clouds,11.85,38.02,Tigesh
150,San Vicente,AR,62.33,light rain,-26.62,-54.13,Complejo Turístico Farelluk
152,Puerto Madryn,AR,38.77,clear sky,-42.77,-65.04,Hotel Tolosa
153,Iwaki,JP,87.01,few clouds,37.05,140.88,Toyoko Inn Iwaki Ekimae
154,Katsuura,JP,87.01,broken clouds,35.13,140.3,Katsuura Hotel Mikazuki
155,Saint Anthony,US,80.01,clear sky,45.02,-93.22,Holiday Inn Express Roseville-St. Paul
156,Knappskog,NO,64.99,broken clouds,60.38,5.06,Bergen. Norway. Ågotnes. Lovely Seaview.
157,Khatanga,RU,52.12,clear sky,71.97,102.5,"Gostinitsa ""Zapolyar'ye"""
158,Kruisfontein,ZA,48.58,light rain,-34.0,24.73,Oyster Bay House Rental
159,Kokoda,PG,83.68,broken clouds,-8.88,147.74,Daito Guest House
160,Ixtapa,MX,80.6,light rain,20.7,-105.2,Container Inn Puerto Vallarta
161,Olafsvik,IS,51.12,overcast clouds,64.89,-23.71,Hotel Olafsvik
162,Quatre Cocos,MU,71.6,scattered clouds,-20.21,57.76,Veranda Palmar Beach Hotel
163,Carnarvon,AU,59.0,broken clouds,-24.87,113.63,Hospitality Carnarvon
164,Atar,MR,94.33,clear sky,20.52,-13.05,Oumou Elghoura
165,Moree,AU,64.4,clear sky,-29.47,149.85,Molika Springs Motel
166,Namatanai,PG,83.44,broken clouds,-3.67,152.43,Namatanai Hotel
167,Kashi,CN,66.2,light intensity shower rain,39.45,75.98,帕米尔青年旅舍
168,Alfatar,BG,61.0,overcast clouds,43.95,27.28,Семеен хотел Братила
171,Hilo,US,82.4,overcast clouds,19.73,-155.09,Hilo Hawaiian Hotel
172,Tuatapere,NZ,51.37,moderate rain,-46.13,167.68,Tom Cruse Refreshment Company
173,Bend,US,91.4,clear sky,44.06,-121.32,Fairfield Inn & Suites by Marriott Bend Downtown
174,Huautla,MX,75.0,moderate rain,21.03,-98.28,Hotel Huautla
175,Havre,FR,66.2,overcast clouds,49.58,0.33,gite bois jourdain
176,Grao Mogol,BR,62.01,clear sky,-16.56,-42.89,Pousada do Eti
177,Nova Russas,BR,76.55,clear sky,-4.71,-40.56,palace motel
178,Faanui,PF,78.12,clear sky,-16.48,-151.75,Bora-Bora Pearl Beach Resort & Spa
179,Benguela,AO,66.36,clear sky,-12.58,13.41,Hotel Praia Morena
180,Skala,PL,64.99,mist,50.23,19.85,Hotel pod Kazimierzem
181,Manggar,ID,82.96,overcast clouds,-2.88,108.27,Guest Hotel
183,Port Alfred,ZA,53.89,broken clouds,-33.59,26.89,The Halyards Hotel
184,Pasni,PK,82.44,overcast clouds,25.26,63.47,3G hotel pasni
185,Kaitangata,NZ,54.0,overcast clouds,-46.28,169.85,Kaitangata Motor Camp
186,Hambantota,LK,77.0,overcast clouds,6.12,81.12,Bungalow 63
187,Dudinka,RU,62.6,clear sky,69.41,86.18,Hotel Viktoria
188,Cidreira,BR,62.37,moderate rain,-30.18,-50.21,Hotel Castelo
190,Coos Bay,US,68.0,clear sky,43.37,-124.22,Best Western Holiday Hotel
191,Naron,ES,69.8,broken clouds,43.52,-8.15,Marcial
192,Mairana,BO,56.5,overcast clouds,-18.12,-63.93,Mi Terruño
193,San Patricio,MX,78.8,moderate rain,19.22,-104.7,Hotel Cabo Blanco
194,Diu,IN,80.44,light rain,20.71,70.98,Hotel Relax Inn
195,Iqaluit,CA,42.8,broken clouds,63.75,-68.51,Frobisher Inn
196,Poum,NC,69.62,clear sky,-20.23,164.02,Gîte kajeon
197,Tsabong,BW,34.99,clear sky,-26.02,22.4,Springbok Motel
198,Ngunguru,NZ,64.99,light rain,-35.62,174.5,Pacific Rendezvous Motel Resort
199,Marawi,PH,77.0,overcast clouds,8.0,124.29,Salihmaruhom
200,San Carlos De Bariloche,AR,30.2,few clouds,-41.15,-71.31,Hotel Patagonia
201,Surgut,RU,57.2,light intensity shower rain,61.25,73.42,Business Hotel
202,Sibu,MY,75.2,scattered clouds,2.3,111.82,RH HOTEL (4 Star)
203,Benjamin Hill,MX,100.0,clear sky,30.17,-111.1,Luis Guillermo García Medina
204,Menongue,AO,51.31,clear sky,-14.66,17.69,Ritz Lauca
205,Weyburn,CA,89.01,clear sky,49.67,-103.85,Perfect Inns & Suites
207,Hudson Bay,CA,77.67,clear sky,52.85,-102.38,Norwood Motel LTD
208,Monrovia,LR,75.9,light rain,6.3,-10.8,Eco-Hotel Hall & Restaurant
209,Sao Gabriel Da Cachoeira,BR,75.36,overcast clouds,-0.13,-67.09,Alarne - Área De Lazer Do Alto Rio Negro
211,Nizwa,OM,89.46,overcast clouds,22.93,57.53,Orient Apartments
212,Vargashi,RU,50.58,moderate rain,55.36,65.85,Tourist hotel
213,Matamoros,MX,89.6,broken clouds,25.53,-103.25,Recreativo Sabdy Briseidy
214,Whitecourt,CA,84.2,broken clouds,54.15,-115.69,Super 8 by Wyndham Whitecourt
216,Nurota,UZ,60.8,clear sky,40.56,65.69,Guest House Ruslan Nurata & Tours
217,Puerto Escondido,MX,82.4,overcast clouds,15.85,-97.07,Aldea del Bazar Hotel and Spa
218,Zatoka,UA,62.6,clear sky,46.07,30.47,Solnechnaya
219,Zhangye,CN,74.84,clear sky,38.93,100.45,Zhangye Lvzhou Holiday Inn
220,Gryazi,RU,53.6,broken clouds,52.5,39.94,Гостиница Ника
221,Nikolsk,RU,53.15,overcast clouds,53.72,46.07,Гостиница Центральная
222,Eyl,SO,77.99,few clouds,7.98,49.82,Amiin Hotel
223,Bollnas,SE,57.0,broken clouds,61.35,16.39,Grand Hotel
224,Imeni Poliny Osipenko,RU,59.68,broken clouds,52.42,136.49,Yubileynaya
225,Tabou,CI,75.38,broken clouds,4.42,-7.35,hotêl doufoulougou
226,Cockburn Town,TC,83.52,clear sky,21.46,-71.14,Osprey Beach Hotel
227,Tuktoyaktuk,CA,62.6,few clouds,69.45,-133.04,End of The Road Ltd.
229,Constitucion,CL,47.14,broken clouds,-35.33,-72.42,Hotel Boutique Las Azucenas
230,Zaysan,KZ,67.24,clear sky,47.47,84.87,Gostinitsa Aray
232,Dong Hoi,VN,83.1,clear sky,17.48,106.6,Nam Long Hotel
233,Shimoda,JP,82.4,broken clouds,34.67,138.95,Shimoda Tokyu Hotel
235,Narsaq,GL,50.0,clear sky,60.92,-46.05,Hotel Narsaq
236,Foam Lake,CA,80.56,clear sky,51.65,-103.53,Foam Lake Campground
237,Plaeng Yao,TH,86.0,overcast clouds,13.58,101.28,Nongkrok Resort
238,Praia Da Vitoria,PT,71.6,broken clouds,38.73,-27.07,Hotel Branco I
239,Teluk Nibung,ID,79.63,light rain,3.0,99.82,PONDOK FELISHA JUICE
240,La Espigadilla,PA,77.85,light rain,7.88,-80.38,Hostal Villa Corrales
241,Dawei,MM,79.38,overcast clouds,14.08,98.2,Hotel Dawei
242,Lively,CA,62.01,broken clouds,46.43,-81.15,Lively Inn and Suites - Sudbury
243,Asyut,EG,80.6,clear sky,27.18,31.18,Florence Hotel Assiut
244,Yar-Sale,RU,55.98,overcast clouds,66.83,70.83,Yalemd
245,Houma,US,86.0,clear sky,29.6,-90.72,Courtyard by Marriott Houma
246,Minot,US,95.0,clear sky,48.23,-101.3,Noble Inn
247,Inhambane,MZ,66.92,few clouds,-23.86,35.38,Oceano
248,Qaanaaq,GL,44.46,light rain,77.48,-69.36,Qaanaaq Hotel
249,Aras,ES,66.2,broken clouds,42.56,-2.36,Jardines de Viana Spa
250,Yuci,CN,62.6,light rain,37.68,112.73,Thank Inn Plus Hotel Shanxi Jinzhong Yuci District Yingbin West Street Yinhaixinyue
251,Pacific Grove,US,82.99,smoke,36.62,-121.92,Lovers Point Inn
252,Ancud,CL,37.4,broken clouds,-41.87,-73.82,Hotel Arena Gruesa
253,Hilton Head Island,US,84.0,broken clouds,32.22,-80.75,Hampton Inn Hilton Head
254,Thompson,CA,68.0,broken clouds,55.74,-97.86,Burntwood Hotel
255,Anloga,GH,77.0,few clouds,5.79,0.9,Dey Lodge
256,Zyryanka,RU,61.02,scattered clouds,65.75,150.85,Zyryanka
257,Lagoa,PT,70.92,broken clouds,39.05,-27.98,Casa Das Faias
258,Lianzhou,CN,82.11,light rain,24.78,112.38,Qingcheng Tourism Industry
259,Gravdal,NO,52.47,overcast clouds,68.12,13.5,Skreda Rorbusuiter
260,Wuwei,CN,73.02,clear sky,37.93,102.64,Thank Inn Chain Hotel gansu wuwei liangzhou district xiguan middle road
261,Ambulu,ID,78.24,clear sky,-8.35,113.61,Hotel Ambulu Jember
262,Chegdomyn,RU,59.11,scattered clouds,51.12,133.02,Gostinitsa Bureya
263,Tyup,KG,54.9,scattered clouds,42.73,78.36,"Gostevoy Dom ""Aldayar"""
264,North Bend,US,68.0,clear sky,43.41,-124.22,Red Lion Hotel Coos Bay
266,Torbay,CA,57.99,light rain,47.67,-52.73,Gallows Cove
267,Pevek,RU,43.27,scattered clouds,69.7,170.31,Severnoye Zoloto
268,Gidam,IN,73.15,overcast clouds,18.98,81.4,Dhanshree Lodge And DormItory
269,Urumqi,CN,69.8,overcast clouds,43.8,87.6,Hua Ling Grand Hotel Urumqi
271,Smidovich,RU,66.02,broken clouds,48.6,133.82,Gostinnitsa
272,Ewo,CG,76.08,light rain,-0.87,14.82,Residence Elonda Ewo
273,Garden City,US,73.99,scattered clouds,42.33,-83.33,Quality Inn & Suites Banquet Center
274,Santa Maria,BR,59.18,light rain,-29.68,-53.81,Hotel Morotin
276,Governador Valadares,BR,69.98,clear sky,-18.85,-41.95,Hotel Panorama
278,Larap,PH,86.09,overcast clouds,14.3,122.65,Mambulao Pacific Resort & Hotel
279,Tayu,ID,80.55,clear sky,-6.54,111.05,Toko pakaian bu is Tayu
280,Saldanha,ZA,42.8,clear sky,-33.01,17.94,Blue Bay Lodge
281,Vao,NC,68.58,clear sky,-22.67,167.48,Hotel Kou-Bugny
282,Wloclawek,PL,62.31,broken clouds,52.65,19.07,Hotel Młyn & SPA
284,Almaty,KZ,53.6,scattered clouds,43.25,76.95,Holiday Inn Almaty
285,Eureka,US,70.0,few clouds,40.8,-124.16,Eureka Inn Trademark By Wyndham
286,Yibin,CN,72.82,overcast clouds,28.77,104.62,Handsome Guesthouse
287,Maceio,BR,69.8,few clouds,-9.67,-35.74,Mercure Maceio Pajucara Hotel
288,Labe,GN,65.98,overcast clouds,11.32,-12.28,Hôtel Djamtum
289,Pangnirtung,CA,61.38,overcast clouds,66.15,-65.71,Kilabuk Lodge
290,Grindavik,IS,51.8,broken clouds,63.84,-22.43,Northern Light Inn & Max's Restaurant
291,Fortuna,US,73.99,clear sky,40.6,-124.16,Super 8 by Wyndham Fortuna
292,Tocopilla,CL,55.47,few clouds,-22.09,-70.2,Hotel Galvarino
293,Aklavik,CA,62.6,few clouds,68.22,-135.01,Aklavik Inn
294,Sept-Iles,CA,61.0,moderate rain,50.2,-66.38,Comfort Inn
295,Teguise,ES,73.4,clear sky,29.06,-13.56,B&B La Casona de Nazaret
296,Lompoc,US,80.01,clear sky,34.64,-120.46,Holiday Inn Express Lompoc
297,Camargo,MX,84.02,overcast clouds,27.67,-105.17,Hotel Santa Fe
298,Margate,GB,66.99,scattered clouds,51.38,1.39,Premier Inn Margate hotel
300,Menomonie,US,70.0,clear sky,44.88,-91.92,Best Western Plus Menomonie Inn & Suites
301,Ewa Beach,US,86.0,overcast clouds,21.32,-158.01,Hampton Inn & Suites Oahu/Kapolei
302,Dalbandin,PK,86.11,clear sky,28.89,64.41,Police station anti NARCOTICS FORCE
304,Hofn,IS,48.58,overcast clouds,64.25,-15.21,Hótel Höfn
305,Biak,ID,80.06,few clouds,-0.91,122.88,Kost Ariz
306,Tiarei,PF,86.0,scattered clouds,-17.53,-149.33,Le Rocher de Tahiti
307,La Rioja,ES,66.2,overcast clouds,42.25,-2.5,Casa Concejos
308,Santa Marta,CO,79.0,overcast clouds,11.24,-74.2,Hotel La Ballena Azul
309,Miramar,US,87.8,few clouds,25.99,-80.23,Stadium Hotel
310,Kismayo,SO,76.87,light rain,-0.36,42.55,Agan-Hotel
311,Juneau,US,61.0,light rain,58.3,-134.42,"Baranof Downtown, BW Signature Collection"
312,Minggang,CN,81.5,scattered clouds,32.46,114.05,Yindu Hotel
313,Shu,KZ,60.01,clear sky,43.6,73.76,Shyngyzkhan
318,Cabedelo,BR,73.4,light rain,-6.98,-34.83,Lua Mansa Pousada
321,Pindiga,NG,73.08,overcast clouds,9.98,10.93,Accommodation Center
322,Iquitos,PE,82.4,few clouds,-3.75,-73.25,Cortez Malaga Techy Caroly
323,Labuhan,ID,79.81,clear sky,-6.88,112.21,bador sepret
324,Ahipara,NZ,60.84,scattered clouds,-35.17,173.17,Ahipara Holiday Park
325,Tual,ID,78.17,clear sky,-5.67,132.75,Grand Vilia Hotel
326,Hendersonville,US,84.2,clear sky,36.3,-86.62,Hyatt Place Nashville/Hendersonville
327,Mount Gambier,AU,48.2,light intensity shower rain,-37.83,140.77,Commodore on the Park
328,Te Anau,NZ,48.79,moderate rain,-45.42,167.72,Kingsgate Hotel Te Anau
329,Muros,ES,68.0,light rain,42.78,-9.06,Apartment Av. Castelao
330,Sarkhej,IN,78.8,light intensity drizzle,22.98,72.5,Ramada by Wyndham Ahmedabad
331,Salalah,OM,75.96,overcast clouds,17.02,54.09,HAMDAN PLAZA HOTEL
332,Suzzara,IT,71.01,light rain,44.99,10.74,Blue hotel
333,Champoton,MX,84.2,clear sky,19.35,-90.72,HOTEL Posada La Regia
334,Sarangani,PH,83.71,few clouds,5.4,125.46,Ballistic Islet
335,Umm Lajj,SA,85.73,broken clouds,25.02,37.27,Moon light Furnished Units
336,Alice Springs,AU,62.6,clear sky,-23.7,133.88,Desert Palms Alice Springs
337,Clyde River,CA,50.0,broken clouds,70.47,-68.59,Qamaq Hotel
338,Sovetskiy,RU,54.07,light rain,61.36,63.58,Apartment on Kievskaya 29
340,Tondano,ID,84.2,few clouds,1.3,124.91,Villa Bella
341,Zhigansk,RU,52.84,broken clouds,66.77,123.37,Gostinichnyy Kompleks Aylgy
342,Wanlaweyn,SO,76.19,overcast clouds,2.62,44.89,Haji Qasim Hotel
343,Danielskuil,ZA,27.61,clear sky,-28.19,23.54,Botha'Sig Gastehuis
344,Gibara,CU,78.8,broken clouds,21.11,-76.13,Sol y Mar
345,Bossangoa,CF,70.74,moderate rain,6.49,17.46,LA PERLE DE BOSTON
346,Noumea,NC,77.0,clear sky,-22.28,166.46,Hôtel Le Lagon
347,Semnan,IR,74.34,clear sky,35.57,53.4,Semnan Tourist Hotel
348,Tuy Hoa,VN,80.65,overcast clouds,13.08,109.3,CenDeluxe Hotel Tuy Hoa
349,Santiago,CL,48.99,overcast clouds,-33.46,-70.65,Hotel Panamericano
350,Mount Isa,AU,80.6,clear sky,-20.73,139.5,ibis Styles Mt Isa Verona
351,Sabha,LY,86.61,clear sky,27.04,14.43,محطة ام الارانب -سبها مواصلات
352,Tena,EC,71.29,light rain,-0.98,-77.82,Hostal Tena Ñaui
353,Marsa Matruh,EG,77.0,clear sky,31.35,27.25,Beau Site
354,Tateyama,JP,86.0,broken clouds,34.98,139.87,Tateyama Seaside Hotel
356,Pato Branco,BR,60.91,heavy intensity rain,-26.23,-52.67,Luz Hotel Pato Branco
357,Pudozh,RU,50.25,overcast clouds,61.81,36.53,Guest-House na Transportnoy
358,Cairns,AU,79.0,broken clouds,-16.92,145.77,Mantra Trilogy Cairns
359,Uvat,RU,49.87,scattered clouds,59.14,68.9,Uvatskiy Rayonnyy Dom Kul'tury
360,Vihti,FI,60.01,clear sky,60.42,24.32,Selli
361,Bandarbeyla,SO,77.43,overcast clouds,9.49,50.81,REER XOOSHLE GROUP
362,Cedral,MX,71.89,light rain,23.8,-100.73,Hotel Rocio
363,Korla,CN,81.84,scattered clouds,41.76,86.15,Gulisitan Hotel
364,Bathsheba,BB,82.4,scattered clouds,13.22,-59.52,Atlantis Hotel
365,Voyvozh,RU,49.62,overcast clouds,62.89,54.96,Statistrovia
366,Kautokeino,NO,44.38,overcast clouds,69.01,23.04,Ailo Matki & Tourist -Kautokeino bilutleie
367,Half Moon Bay,US,95.0,clear sky,37.46,-122.43,"The Ritz-Carlton, Half Moon Bay"
368,Petropavlovsk-Kamchatskiy,RU,59.0,broken clouds,53.05,158.65,"ООО ""Гостиничный комплекс ""Петропавловск"""
369,Berlevag,NO,50.54,broken clouds,70.86,29.09,Kvitbrakka
370,Greenville,US,77.0,clear sky,35.61,-77.37,Holiday Inn Express Greenville
371,Urusha,RU,60.78,clear sky,54.05,122.9,Dom Otdykha Lokomotivnykh Brigad
372,Broome,US,66.0,clear sky,42.25,-75.83,Chenango Valley State Park
373,Bama,NG,77.7,overcast clouds,11.52,13.69,UN Humanitarian Hub
374,Gillette,US,91.4,clear sky,44.29,-105.5,National 9 Inn - Gillette WY
375,Saint-Paul,RE,68.0,broken clouds,-21.01,55.27,Boucan Canot
376,Prince Rupert,CA,64.4,broken clouds,54.32,-130.32,Crest Hotel
377,Vestmannaeyjar,IS,51.98,scattered clouds,63.44,-20.27,Glamping & Camping
378,Udachnyy,RU,48.2,fog,66.42,112.4,Gostinitsa Vilyuy
379,Ajdabiya,LY,73.36,clear sky,30.76,20.23,فندق التوجان
380,Preobrazheniye,RU,78.91,clear sky,42.9,133.91,Campsite Orlan
381,Chumikan,RU,57.16,overcast clouds,54.72,135.31,Fortuna
382,Snyder,US,93.2,clear sky,32.72,-100.92,Holiday Inn Express & Suites Snyder
383,Lesosibirsk,RU,60.98,light rain,58.24,92.48,"""Vitalina"" hotel"
384,Humberto De Campos,BR,76.96,clear sky,-2.6,-43.46,Pousada do Cabeça
385,Shakiso,ET,60.69,overcast clouds,5.75,38.92,ከለቻ Kelecha
387,Denpasar,ID,78.8,scattered clouds,-8.65,115.22,ASTON Denpasar Hotel & Convention Center
388,Edendale,ZA,42.01,clear sky,-29.65,30.31,Bed and Breakfast at the White House
389,Sao Joao Da Barra,BR,73.92,clear sky,-21.64,-41.05,Pousada Porto De Canoas
390,Grand-Lahou,CI,73.29,few clouds,5.14,-5.02,Hotel Beatitude de Grand Lahou
391,Deputatskiy,RU,37.78,light rain,69.3,139.9,Baza Otdykha
392,Gonzalez,US,87.8,clear sky,30.58,-87.29,Motel Air Inc
393,Roma,US,68.0,few clouds,43.21,-75.46,Wingate By Wyndham Rome
394,Northam,GB,63.0,overcast clouds,51.03,-4.22,Durrant House Hotel
395,Los Algarrobos,PA,78.01,light rain,8.5,-82.43,Waterfall Hostel
397,Bjornevatn,NO,50.0,overcast clouds,69.67,29.98,Snowhotel Kirkenes | Gamme Northern Lights Cabins
398,Yinchuan,CN,69.58,clear sky,38.47,106.27,JJ Inns - Yinchuan New Moon Square Branch
399,Nata,PA,77.09,light rain,8.33,-80.52,Cabañas Estancia Bayamon
400,Giyani,ZA,59.76,clear sky,-23.3,30.72,Kulani Country Lodge
401,La Ronge,CA,77.0,few clouds,55.1,-105.28,Northland Motor Hotel
402,Lucapa,AO,68.38,few clouds,-8.42,20.74,Residência Ulisses Dos Santos
403,Sao Jose Da Coroa Grande,BR,73.85,overcast clouds,-8.9,-35.15,Crôa Mares Hotel
404,Tura,IN,76.95,clear sky,25.52,90.22,Hotel RIKMAN Continental
405,Makakilo City,US,86.0,overcast clouds,21.35,-158.09,Marriott's Ko Olina Beach Club
406,Bira,RU,67.1,clear sky,49.0,132.47,Gostitsa Edel'veys
407,Shizilu,CN,83.93,light rain,35.17,118.83,Shell Linyi Lvnan Bus Station Hotel
408,Areka,ET,59.22,light rain,7.07,37.7,Selam Hotel ሰላም ሆቴል
409,Fomboni,KM,75.94,overcast clouds,-12.28,43.74,Auberge les abou
410,Uige,AO,63.55,broken clouds,-7.61,15.06,Juliao Pereira
412,Viedma,AR,42.01,broken clouds,-40.81,-63.0,Hotel Cristal
413,Ridgecrest,US,106.0,thunderstorm,35.62,-117.67,SpringHill Suites by Marriott Ridgecrest
414,Kiunga,PG,83.34,broken clouds,-6.12,141.29,Airport Lodge Kiunga
415,Rawlins,US,87.8,clear sky,41.79,-107.24,Holiday Inn Express Rawlins
416,Isla Mujeres,MX,84.2,scattered clouds,21.23,-86.73,Hotel La Joya Isla Mujeres
417,Wodonga,AU,50.0,broken clouds,-36.12,146.88,Blazing Stump Motel & Suites Wodonga
418,Launceston,AU,50.0,broken clouds,-41.45,147.17,Hotel Grand Chancellor Launceston
419,Paamiut,GL,47.48,clear sky,61.99,-49.67,Yeet Hotel
420,San Nicolas,PH,84.2,few clouds,18.17,120.6,NORTHVIEW Hotel
421,Grand Baie,MU,71.01,light rain,-20.02,57.58,Canonnier Beachcomber Golf Resort & Spa
422,Falam,MM,62.06,heavy intensity rain,22.92,93.68,Falang Government Guesthouse
423,Husavik,IS,50.0,overcast clouds,66.04,-17.34,Bjarnabúð
424,Loubomo,CG,70.14,broken clouds,-4.2,12.67,La Dolisienne
425,Aasiaat,GL,46.67,overcast clouds,68.71,-52.87,Hotel Aasiaat Sømandshjem
426,Mareeba,AU,79.0,few clouds,-17.0,145.43,Trinity Plains Tourist Park
427,Atasu,KZ,61.27,light rain,48.68,71.64,Dostyk
428,Urcos,PE,51.67,clear sky,-13.69,-71.62,Qali Samanawasi
429,Port Hedland,AU,73.4,clear sky,-20.32,118.57,The Esplanade Hotel
430,Padina,RS,64.4,scattered clouds,45.12,20.73,Smeštaj Masarik
431,Hesla,IN,79.68,clear sky,24.07,85.88,Khurshid Dhaba
433,Hemsedal,NO,50.0,few clouds,60.86,8.55,Hemsetunet Estate AS
434,Pascagoula,US,87.8,clear sky,30.37,-88.56,Regency Inn
435,Camacha,PT,71.6,few clouds,33.08,-16.33,Hotel Porto Santo & Spa
436,Saint George,US,109.4,clear sky,37.1,-113.58,Best Western Plus Abbey Inn
437,Kayseri,TR,51.8,clear sky,38.74,35.5,ibis Kayseri
438,Sanandaj,IR,69.8,clear sky,35.31,46.99,Sanandaj Tourism Hotel
439,Teahupoo,PF,86.0,scattered clouds,-17.83,-149.27,Vanira Lodge
441,San Buenaventura,MX,84.24,light rain,27.08,-101.53,Hotel Gran Plaza
442,Kununurra,AU,84.2,broken clouds,-15.77,128.73,Hotel Kununurra
443,Dubbo,AU,59.0,clear sky,-32.25,148.62,Comfort Inn Blue Lagoon
444,Oktyabrskoye,RU,51.8,clear sky,43.06,44.74,Prolesok Mini-hotel
445,Bajina Basta,RS,55.4,overcast clouds,43.97,19.57,Aprtmani Bajina Basta
446,Soltsy,RU,52.56,broken clouds,58.12,30.32,Gostinitsa
447,Nuevo Progreso,MX,84.0,overcast clouds,23.17,-97.95,Balneario Rio el Paraiso
448,Seoul,KR,80.6,scattered clouds,37.57,126.98,LOTTE HOTEL SEOUL
449,Soria,ES,61.0,overcast clouds,41.67,-2.67,Casa Rural Sierra de Inodejo
451,Ugoofaaru,MV,81.91,overcast clouds,5.67,73.0,Ungoofaaru Inn
452,Svetlyy,RU,64.4,few clouds,54.67,20.13,"Gostinitsa-Kafe, Alena"
453,Mazatlan,MX,88.0,overcast clouds,23.22,-106.42,Gaviana Resort
454,Richmond,US,78.8,broken clouds,37.55,-77.46,Holiday Inn Express Richmond - Downtown
455,Innisfail,AU,75.63,broken clouds,-17.53,146.03,Moondarra Motel
456,Chase,CA,90.0,overcast clouds,50.82,-119.69,Chase Country Inn Motel
457,Carauari,BR,78.98,overcast clouds,-4.88,-66.9,Pousada Lobo
459,Santa Fe,AR,63.0,clear sky,-31.63,-60.7,Conquistador Hotel
460,Villa Maria,AR,53.42,overcast clouds,-32.41,-63.24,Hotel Milenium
461,Dzidzantun,MX,79.41,clear sky,21.25,-89.05,Hacienda San Francisco Tzacalha
462,Senanga,ZM,58.19,clear sky,-16.12,23.27,Christopher Nasilele House
463,Ploemeur,FR,68.0,light rain,47.73,-3.43,Best Western Plus Hotel Les Rives Du Ter
467,Kimberley,ZA,32.0,clear sky,-28.73,24.76,Welgewandel Guesthouse
468,Artigas,UY,53.82,clear sky,-30.4,-56.47,Hotel Casino San Eugenio del Cuareim
470,Alihe,CN,61.39,clear sky,50.57,123.72,Alihe Forestry Hotel
471,Nova Olimpia,BR,85.12,clear sky,-14.8,-57.29,Motel glamour
472,Najran,SA,89.6,scattered clouds,17.49,44.13,محمد هادي ال فطيح
473,Isangel,VU,78.8,few clouds,-19.55,169.27,Volcano Sea View Tree House
474,Galesong,ID,80.6,few clouds,-5.32,119.37,Sapriadi Appy
475,Broken Hill,AU,55.4,broken clouds,-31.95,141.43,Daydream Motel & Cottages
476,Netarhat,IN,70.18,scattered clouds,23.48,84.27,Hotel Prakash
477,Hervey Bay,AU,75.2,clear sky,-25.3,152.85,Shelly Bay Resort
478,Kristiansund,NO,62.6,clear sky,63.11,7.73,Thon Hotels Storgata
479,Nizhniy Kuranakh,RU,56.08,overcast clouds,58.84,125.49,Park Pobedy
480,Athabasca,CA,81.07,clear sky,54.72,-113.29,Athabasca Lodge Motel
481,Lagoa Santa,BR,69.8,clear sky,-19.63,-43.89,Hotel Lund
482,Whitehorse,CA,63.0,broken clouds,60.72,-135.05,Westmark Hotel
484,Alugan,PH,79.63,overcast clouds,12.22,125.48,BEMBEM RAIN FEED RESORT
485,Lata,PT,70.0,clear sky,40.16,-8.33,Casa Maquia
486,Mehamn,NO,49.5,overcast clouds,71.04,27.85,Mehamn Arctic Hotel AS
487,Itarema,BR,78.08,scattered clouds,-2.92,-39.92,Windvillage
490,El Vigia,VE,77.7,moderate rain,8.62,-71.65,Liceo Bolivariano 19 De Abril
492,Linhares,BR,69.19,clear sky,-19.39,-40.07,Hotel Conceição
493,San Rafael,AR,46.09,broken clouds,-34.62,-68.33,Hotel San Rafael
494,Bouafle,CI,75.2,scattered clouds,6.99,-5.74,Hotel Zaouli
495,Bose,IT,69.01,clear sky,45.46,8.01,Locanda Borgo Antico
496,Sao Filipe,CV,78.48,scattered clouds,14.9,-24.5,Tortuga B&B
497,Terrak,NO,50.0,clear sky,65.09,12.37,Terråk Gjestegård
498,Raton,US,89.6,clear sky,36.9,-104.44,Holiday Inn Express & Suites Raton
499,Wladyslawowo,PL,61.0,scattered clouds,54.79,18.4,Gwiazda Morza Resort SPA&SPORT
501,Cape Coast,GH,74.89,overcast clouds,5.11,-1.25,Samrit Hotel
502,Bhimunipatnam,IN,80.6,drizzle,17.88,83.43,Vizag Palms
503,Yakeshi,CN,56.5,clear sky,49.28,120.73,Longhua Hotel
504,Cao Bang,VN,78.37,overcast clouds,22.67,106.25,khách sạn 88
505,Port Hope,US,66.99,clear sky,43.94,-82.71,Stafford County Park
506,Fare,PF,78.69,clear sky,-16.7,-151.02,Maitai Lapita Village Huahine
507,Karratha,AU,71.73,clear sky,-20.74,116.85,ibis Styles Karratha
508,Clyde,US,70.0,few clouds,41.3,-82.98,Red Roof Inn Clyde
509,Airai,TL,72.75,clear sky,-8.93,125.41,Juvinal Martin
510,Rovaniemi,FI,44.6,broken clouds,66.5,25.72,Santa's Hotel Santa Claus
511,Ardakan,IR,82.4,few clouds,32.31,54.02,Ardakan Hotel
512,Maraba,BR,84.2,clear sky,-5.37,-49.12,Hotel Del Principe
513,Pemba,MZ,73.4,few clouds,-12.97,40.52,Guesthouse Samotina
514,Loding,NO,51.8,broken clouds,67.3,14.75,Arctic Kramer
515,Iskateley,RU,50.54,overcast clouds,67.68,53.15,Hostel Agat
516,Pocerski Pricinovic,RS,66.99,scattered clouds,44.72,19.71,Hostel BLUEBERRY Sabac
517,Touros,BR,73.4,few clouds,-5.2,-35.46,INN NEW HORIZON
518,Brokopondo,SR,81.61,overcast clouds,4.75,-55.17,Matu Island
519,Gigmoto,PH,85.19,overcast clouds,13.78,124.39,Cj's Travellers Inn
520,Comodoro Rivadavia,AR,39.2,clear sky,-45.87,-67.5,Austral Hotel
521,Elk City,US,89.6,clear sky,35.41,-99.4,Hampton Inn & Suites Elk City
522,Ginir,ET,59.63,overcast clouds,7.13,40.7,Sura Dare Village
524,Moerai,PF,70.29,overcast clouds,-22.43,-151.33,Le Manotel
525,Batemans Bay,AU,60.01,broken clouds,-35.72,150.18,Coachhouse Marina Resort - Batemans Bay
526,Guerrero Negro,MX,81.79,light rain,27.98,-114.06,"Casa Laguna, Bed & Breakfast"
527,Motupe,PE,62.55,broken clouds,-6.15,-79.71,Hostal MALU
528,Christchurch,NZ,57.99,overcast clouds,-43.53,172.63,"Chateau on the Park - Christchurch, a DoubleTree by Hilton"
529,Nenjiang,CN,60.76,clear sky,49.18,125.22,Nenjiang Apartment
530,Bayir,TR,68.0,clear sky,37.27,28.22,Buban Otel
532,Nelson Bay,AU,69.01,clear sky,-32.72,152.15,Mantra Nelson Bay
533,Remedios,CU,82.4,broken clouds,22.49,-79.55,Hostal Yunai
534,Krasnoyarka,RU,55.4,broken clouds,55.33,73.12,"Country Complex ""Tsaritsyno"""
535,Krasnoselkup,RU,60.48,clear sky,65.7,82.47,Krasnosel'kupnefteprodukt
536,Vanavara,RU,59.43,overcast clouds,60.34,102.28,Russia
537,Benghazi,LY,78.67,clear sky,32.12,20.07,Tibesti Hotel
538,Young,UY,59.0,clear sky,-32.68,-57.63,Posada Gira el Sol
539,Namibe,AO,59.97,clear sky,-15.2,12.15,Hotel Chik Chik Namibe
540,Ilhabela,BR,68.65,few clouds,-23.78,-45.36,Ilha Flat Hotel
541,Aljezur,PT,68.0,clear sky,37.32,-8.8,Amazigh Hostel
542,San Cristobal,VE,68.04,moderate rain,7.77,-72.22,Pirineos
543,Samfya,ZM,59.9,clear sky,-11.36,29.56,Chita Lodge Samfya
545,Santiago Del Estero,AR,62.94,clear sky,-27.8,-64.26,Hotel Urbano
547,Ambilobe,MG,64.58,scattered clouds,-13.2,49.05,Hôtel & Restaurant DIANA Ambilobe
548,Bulawayo,ZW,53.83,clear sky,-20.15,28.58,4 On Housman Backpackers
549,Raudeberg,NO,64.0,clear sky,61.99,5.14,Nordre Silda.
550,Neiafu,TO,80.6,broken clouds,-18.65,-173.98,Mystic Sands
551,Muli,MV,82.2,scattered clouds,2.92,73.57,Medhufushi Island Resort
553,Mulege,MX,91.8,clear sky,26.88,-111.98,Casa Granada
554,The Valley,AI,84.2,few clouds,18.22,-63.06,CeBlue Villas & Beach Resort
556,Khor,RU,66.04,broken clouds,47.89,134.95,Gostinitsa Deksi
557,Kochi,IN,77.0,mist,9.94,76.26,Trident Hotel Cochin
558,Gat,IL,75.99,clear sky,31.61,34.76,רגע בנחת
559,Hovd,MN,66.79,overcast clouds,48.01,91.64,Hotel Khovd
560,Copiapo,CL,51.8,clear sky,-27.37,-70.33,Antay Casino Hotel
561,Taltal,CL,52.27,clear sky,-25.4,-70.48,Residencial Karime
562,Petrolina,BR,73.99,few clouds,-9.4,-40.5,JB Hotel
563,Tiruchchendur,IN,80.06,overcast clouds,8.48,78.12,Hotel Udhayam International
564,Batouri,CM,68.52,light rain,4.43,14.37,Hotel Hollywood
565,Ulladulla,AU,64.0,scattered clouds,-35.35,150.47,Sandpiper Motel
567,Maniitsoq,GL,53.42,clear sky,65.42,-52.9,Hotel Heilmann Lyberth
568,Mancio Lima,BR,81.75,scattered clouds,-7.61,-72.9,Hotel e Distribuidora Voyage
569,La Asuncion,VE,81.72,overcast clouds,11.03,-63.86,Colinas de Matasiete
570,Polyarnyy,RU,46.4,overcast clouds,69.2,33.45,Hotel Tatyana
571,Algiers,DZ,73.4,overcast clouds,36.75,3.04,Sofitel Algiers Hamma Garden
572,Codrington,AU,53.24,light rain,-38.27,141.97,Codrington Gardens Bed And Breakfast
573,Bull Savanna,JM,78.8,moderate rain,17.89,-77.59,Big Red's
574,Dongsheng,CN,65.62,clear sky,39.82,109.98,Crowne Plaza Ordos
575,Portland,US,86.0,few clouds,45.52,-122.68,Portland Marriott City Center
576,Buraydah,SA,84.2,clear sky,26.33,43.98,Mövenpick Hotel Qassim
577,Qui Nhon,VN,81.86,overcast clouds,13.77,109.23,Khách sạn Hải Âu Quy Nhơn - Seagull Hotel
578,Yazman,PK,92.66,few clouds,29.12,71.74,Jamal sons showroom
580,Kapoeta,SS,72.59,overcast clouds,4.77,33.59,Eastgate Hotel
581,Batesville,US,82.4,clear sky,35.77,-91.64,Holiday Inn Express & Suites Batesville
582,Pangody,RU,59.09,overcast clouds,65.85,74.49,Elizaveta Shevchuk's House
583,Roatan,HN,84.09,overcast clouds,16.32,-86.54,Hotel Henry Morgan
584,Orta Nova,IT,71.6,few clouds,41.33,15.71,Hotel Novelli
585,Camabatela,AO,59.65,overcast clouds,-8.19,15.38,Pensão E Restaurantes
586,Carlsbad,US,80.6,clear sky,33.16,-117.35,Carlsbad Inn Beach Resort
587,Yura,PE,51.17,overcast clouds,-16.25,-71.68,Hotel Yura
588,Ruidoso,US,80.01,clear sky,33.33,-105.67,Inn of the Mountain Gods
589,Toowoomba,AU,66.2,clear sky,-27.55,151.97,Toowoomba Central Plaza Apartment Hotel
590,Ranong,TH,77.0,scattered clouds,9.97,98.63,Tinidee Hotel@Ranong
591,Faya,SA,73.4,broken clouds,18.39,42.45,مقبرة ال مجمل
592,Trincomalee,LK,80.02,overcast clouds,8.57,81.23,Welcombe Hotel
593,Kimbe,PG,88.88,clear sky,-5.55,150.14,Kimbe Bay Hotel
594,Revelstoke,CA,84.2,scattered clouds,50.98,-118.2,Best Western Plus Revelstoke
595,Ketchikan,US,59.0,light rain,55.34,-131.65,Snows Cove Lodge
596,Los Llanos De Aridane,ES,72.0,clear sky,28.66,-17.92,Valle Aridane
597,Yeppoon,AU,78.8,clear sky,-23.13,150.73,Villa Mar Colina
598,Tonekabon,IR,71.6,broken clouds,36.82,50.87,Hotel Sadra
599,Pisco,PE,63.0,scattered clouds,-13.7,-76.22,Hostal San Isidro Oficial
600,Pathein,MM,77.31,moderate rain,16.78,94.73,Pathein Hotel
601,Port-Gentil,GA,75.31,light rain,-0.72,8.78,Fengshui Residence
602,Soe,ID,77.95,scattered clouds,-9.86,124.28,Dena Hotel
603,Pochutla,MX,82.99,light rain,15.74,-96.47,Hotel Posada San Jose
604,Trairi,BR,77.83,clear sky,-3.28,-39.27,Pousada Field Lilies - Trairi
605,Santa Rosa,PH,84.99,moderate rain,14.31,121.11,Amethyst Econotel
606,Duzce,TR,65.43,clear sky,40.84,31.16,Gösteri̇şli̇ Otel
607,Porto Nacional,BR,82.4,broken clouds,-10.71,-48.42,Vila Real Hotel
608,Janauba,BR,70.84,clear sky,-15.8,-43.31,Ouro Norte Palace Hotel
609,Erenhot,CN,63.25,clear sky,43.65,111.98,Erenhot Rurouni Youth Hostel
611,Smirnykh,RU,71.02,broken clouds,49.75,142.83,Gorodok
613,Necochea,AR,35.01,clear sky,-38.55,-58.74,dyd -mar Hotel
614,Kobe,JP,89.6,scattered clouds,34.69,135.18,Kobe Sannomiya Union Hotel
615,Bhimavaram,IN,77.97,overcast clouds,16.53,81.53,Madipalli Inn
616,San Juan,AR,53.87,scattered clouds,-31.54,-68.54,Hotel Provincial
617,Muisne,EC,72.79,overcast clouds,0.6,-80.03,Quinta Samay
618,Coquimbo,CL,51.8,broken clouds,-29.95,-71.34,Hotel San Juan
619,Beruwala,LK,79.68,overcast clouds,6.48,79.98,"Occidental Eden Beruwala, a member of Barceló Hotel Group"
620,Koronowo,PL,60.01,overcast clouds,53.31,17.94,ORW Julia
621,Finnsnes,NO,43.0,overcast clouds,69.23,17.98,Finnsnes Hotel - A SNR Hotel
622,Anadyr,RU,55.4,scattered clouds,64.75,177.48,"Гостиница ""Анадырь"""
623,Chicama,PE,59.36,scattered clouds,-7.84,-79.15,Hospedaje Punta Cana PERU
625,Kisangani,CD,71.83,broken clouds,0.52,25.2,Grand Ramela Hotel
626,Codajas,BR,82.54,clear sky,-3.84,-62.06,Hotel Tamires
628,Uray,RU,51.33,broken clouds,60.12,64.78,Hotel Pioner
629,Severobaykalsk,RU,58.93,clear sky,55.65,109.32,"Гостиница ""Чайка"""
630,Moose Factory,CA,53.6,overcast clouds,51.26,-80.61,Cree Village Eco Lodge
631,Grajau,BR,80.13,clear sky,-5.82,-46.14,Hotel Confiança
632,Bandrele,YT,75.2,broken clouds,-12.91,45.19,Les Baobabs
633,Baculin,PH,82.65,overcast clouds,7.45,126.58,Shovy's Cove
634,Nefteyugansk,RU,57.2,light intensity shower rain,61.1,72.6,Royal Plaza
635,Nemuro,JP,71.6,scattered clouds,43.32,145.57,Hotel Nemuro Kaiyoutei
637,Kendari,ID,81.27,clear sky,-3.94,122.5,Hotel Wixel
638,Mogocha,RU,63.52,clear sky,53.73,119.77,Yalta Inn
639,Andros Town,BS,86.0,thunderstorm,24.7,-77.77,Hanks place
640,Khuzdar,PK,78.91,broken clouds,27.74,66.64,jhalwan Rent A Car Compny Moola Chotok
641,Parkersburg,US,73.0,overcast clouds,39.27,-81.56,The Blennerhassett Hotel
642,Liepaja,LV,48.2,clear sky,56.54,21.04,Promenade Hotel
643,San Ramon,US,102.2,smoke,37.78,-121.98,San Ramon Marriott
644,Samana,DO,82.4,few clouds,19.21,-69.34,The Bannister - Hotel & Yacht Club
645,Excelsior Springs,US,73.4,clear sky,39.34,-94.23,The Elms Hotel & Spa
646,Haines Junction,CA,60.31,light rain,60.75,-137.51,Parkside Inn
647,Geraldton,AU,51.8,scattered clouds,-28.77,114.6,Broadwater Mariner Resort
648,Barrancabermeja,CO,77.05,moderate rain,7.07,-73.85,Hotel Millenium Barrancabermeja
649,Tecpan,GT,71.6,overcast clouds,14.76,-90.99,San Ricardo Restaurante y Hotel
650,Lishui,CN,87.19,clear sky,28.46,119.91,Bayi Hotel
652,Montgomery,US,73.99,clear sky,39.15,-77.2,Hilton Washington DC North/Gaithersburg
653,Valparaiso,CL,51.01,broken clouds,-33.04,-71.63,Hotel Ultramar
654,Coruripe,BR,73.08,scattered clouds,-10.13,-36.18,Pousada e Hotel Litoral Sul
655,Indianola,US,73.99,clear sky,41.36,-93.56,Quality Inn Indianola
656,Solnechnyy,RU,63.73,scattered clouds,50.72,136.63,Hotel complex Pastoral
657,Beringovskiy,RU,54.75,clear sky,63.05,179.32,Beringgorski
658,Masuda,JP,82.4,few clouds,34.67,131.85,Masuda Green Hotel Morris
659,Cayenne,GF,80.6,clear sky,4.93,-52.33,Hôtel Le Dronmi
660,Sur,OM,84.7,scattered clouds,22.57,59.53,Sur Plaza Hotel
661,Grand Gaube,MU,71.01,light rain,-20.01,57.66,Veranda Paul et Virginie Hotel & Spa
662,Khurda,IN,78.8,thunderstorm with light rain,20.18,85.62,Bagbaan Villa
663,Stillwater,US,87.8,clear sky,36.12,-97.06,Hampton Inn & Suites Stillwater
664,Mira,IT,70.0,broken clouds,45.44,12.13,Villa Gasparini
665,Kropotkin,RU,64.38,clear sky,45.44,40.58,Hotel Europe Kropotkin
666,Aranda De Duero,ES,63.86,broken clouds,41.67,-3.69,Hotel Villa De Aranda
667,Delfzijl,NL,60.01,mist,53.33,6.92,Eemshotel
668,Balas,PH,84.0,broken clouds,15.03,120.61,Diaspora Farm Resort
669,Malakal,SS,69.3,overcast clouds,9.53,31.66,Nile Palace Hotel
670,Hammerfest,NO,48.2,drizzle,70.66,23.68,Skytterhuset
672,Augustow,PL,60.55,broken clouds,53.84,22.98,Hotel Warszawa SPA & Resort
673,Wewak,PG,83.91,few clouds,-3.55,143.63,In Wewak Boutique Hotel
674,Paita,PE,62.01,clear sky,-5.09,-81.11,Hotel Náutico de Paita
675,Puerto Ayacucho,VE,76.55,overcast clouds,5.66,-67.62,Posada Turistica Manapiare
676,Stornoway,GB,57.0,clear sky,58.21,-6.39,Caladh Inn
677,Santa Flavia,IT,78.01,overcast clouds,38.09,13.54,La Caletta
678,Russell,US,91.4,clear sky,32.35,-85.2,Macs
679,Acapulco,MX,84.2,overcast clouds,16.86,-99.89,HS Hotsson Smart Acapulco
680,Skjervoy,NO,53.2,overcast clouds,70.03,20.97,Skjervøy Byggeservice AS
681,Tefe,BR,81.36,clear sky,-3.35,-64.71,Aracati Hotel
682,Kudahuvadhoo,MV,82.26,scattered clouds,2.67,72.89,Kudahuvadhoo Retreat
683,Taiyuan,CN,62.6,light rain,37.87,112.56,Taiyuan Wanda Wenhua Hotel
684,Bima,ID,83.19,clear sky,-8.47,118.72,Lambitu Hotel
685,Pucallpa,PE,83.1,overcast clouds,-8.38,-74.55,Hotel Sol de Oriente - Pucallpa
686,Rawson,AR,38.97,broken clouds,-43.3,-65.1,Hotel Punta León
687,Asau,RO,63.0,clear sky,46.43,26.4,Casa Mika Ciobanus
689,Kampot,KH,84.2,scattered clouds,10.62,104.18,Champa Lodge
690,Naze,JP,89.6,few clouds,28.37,129.48,奄美ポートタワーホテル
691,Fort Nelson,CA,59.0,thunderstorm with light rain,58.81,-122.7,The Fort Nelson Hotel
692,Arroyo,ES,69.01,clear sky,41.61,-4.8,Hotel El Jardín de la Abadía
693,Chapais,CA,55.4,overcast clouds,49.78,-74.85,Hôtel Opémiska
694,Xiangxiang,CN,85.06,overcast clouds,27.73,112.53,Huatai International Hotel
